[
  {
    "name": "Sumiyoshi Shrine",
    "name_cn": "住吉神社",
    "category": "attraction",
    "address": "2 Chome-5 Sumiyoshicho, Otaru, Hokkaido 047-0015, Japan",
    "latitude": 43.1873,
    "longitude": 141.0089,
    "region_name": "Otaru",
    "country": "Japan",
    "description": "小樽值得顺路安排的神社景点之一，适合和八音盒博物馆、LeTAO、小樽运河排成同一天路线。",
    "tags": ["manual-video-import", "otaru", "shrine"],
    "images": [],
    "status": "active"
  },
  {
    "name": "Oyunuma River Natural Footbath",
    "name_cn": "大汤沼 天然足汤",
    "category": "attraction",
    "address": "Noboribetsuonsencho, Noboribetsu, Hokkaido 059-0551, Japan",
    "latitude": 42.4975,
    "longitude": 141.1444,
    "region_name": "Noboribetsu",
    "country": "Japan",
    "description": "登别温泉区很有人气的自然足汤点，适合和地狱谷、泉源公园一起安排成同一段温泉散步路线。",
    "tags": ["manual-video-import", "noboribetsu", "footbath"],
    "images": [],
    "status": "active"
  },
  {
    "name": "Sengen Park",
    "name_cn": "泉源公园",
    "category": "attraction",
    "address": "Sengen Park, Noboribetsuonsencho, Noboribetsu, Hokkaido, Japan",
    "latitude": 42.4948853,
    "longitude": 141.1436714,
    "region_name": "Noboribetsu",
    "country": "Japan",
    "description": "登别温泉街一带的经典散步点，适合搭配地狱谷和温泉商店街一起逛。",
    "tags": ["manual-video-import", "noboribetsu", "park"],
    "images": [],
    "status": "active"
  },
  {
    "name": "Enma-do",
    "name_cn": "阎魔堂",
    "category": "attraction",
    "address": "Noboribetsuonsencho, Noboribetsu, Hokkaido 059-0551, Japan",
    "latitude": 42.4915,
    "longitude": 141.147,
    "region_name": "Noboribetsu",
    "country": "Japan",
    "description": "登别温泉街里很有辨识度的小景点，适合顺路停留拍照和逛街时一起打卡。",
    "tags": ["manual-video-import", "noboribetsu", "temple"],
    "images": [],
    "status": "active"
  },
  {
    "name": "Hachiman-zaka Slope",
    "name_cn": "八幡坂",
    "category": "attraction",
    "address": "Motomachi, Hakodate, Hokkaido 040-0054, Japan",
    "latitude": 41.7633,
    "longitude": 140.7119,
    "region_name": "Hakodate",
    "country": "Japan",
    "description": "函馆最经典的坡道取景点之一，尽头望向海面的画面很有代表性，适合安排在元町和仓库区一带一起逛。",
    "tags": ["manual-video-import", "hakodate", "viewpoint"],
    "images": [],
    "status": "active"
  },
  {
    "name": "Flexstay Inn Hakodate Station",
    "name_cn": "FlexStay Inn Hotel",
    "category": "accommodation",
    "address": "20-11 Wakamatsucho, Hakodate, Hokkaido 040-0063, Japan",
    "latitude": 41.7735782,
    "longitude": 140.7287955,
    "region_name": "Hakodate",
    "country": "Japan",
    "description": "函馆站前一带的住宿草稿点，适合作为后续挂订房联盟链接的承接页面。",
    "tags": ["manual-video-import", "hakodate", "hotel", "affiliate-priority"],
    "images": [],
    "status": "active"
  },
  {
    "name": "Ginzan Onsen Takimikan",
    "name_cn": "银山温泉 泷见馆",
    "category": "accommodation",
    "address": "522 Ginzanshinhata, Obanazawa, Yamagata 999-4333, Japan",
    "latitude": 38.5741323,
    "longitude": 140.5305904,
    "region_name": "Obanazawa",
    "country": "Japan",
    "description": "银山温泉一带的住宿草稿点，适合后续补旅馆介绍与订房联盟链接。",
    "tags": ["manual-video-import", "ginzan-onsen", "hotel", "affiliate-priority"],
    "images": [],
    "status": "active"
  },
  {
    "name": "Kabukicho",
    "name_cn": "歌舞伎町",
    "category": "attraction",
    "address": "Kabukicho, Shinjuku City, Tokyo 160-0021, Japan",
    "latitude": 35.6945429,
    "longitude": 139.7027105,
    "region_name": "Tokyo",
    "country": "Japan",
    "description": "新宿最有代表性的夜生活街区之一，适合当作东京夜景与城市氛围的独立页面。",
    "tags": ["manual-video-import", "tokyo", "nightlife"],
    "images": [],
    "status": "active"
  },
  {
    "name": "Henn na Hotel Tokyo Nishikasai",
    "name_cn": "Henn na Hotel Tokyo Nishikasai",
    "category": "accommodation",
    "address": "5-4-7 Nishikasai, Edogawa-ku, Tokyo 134-0088, Japan",
    "latitude": 35.6660709,
    "longitude": 139.8618311,
    "region_name": "Tokyo",
    "country": "Japan",
    "description": "东京西葛西一带的住宿草稿点，适合后续补实拍、住宿体验与订房联盟链接。",
    "tags": ["manual-video-import", "tokyo", "hotel", "affiliate-priority", "needs-map-review"],
    "images": [],
    "status": "active"
  },
  {
    "name": "Chureito Pagoda",
    "name_cn": "忠灵塔",
    "category": "attraction",
    "address": "1 Arakura, Fujiyoshida, Yamanashi 403-0011, Japan",
    "latitude": 35.5012871,
    "longitude": 138.8013556,
    "region_name": "Fujiyoshida",
    "country": "Japan",
    "description": "富士山经典同框机位之一，适合和新仓山浅间公园、浅间神社一起安排成一组拍照路线。",
    "tags": ["manual-video-import", "fujiyoshida", "pagoda"],
    "images": [],
    "status": "active"
  },
  {
    "name": "Arakura Fuji Sengen Shrine",
    "name_cn": "新仓山浅间神社",
    "category": "attraction",
    "address": "1 Asama, Fujiyoshida, Yamanashi 403-0011, Japan",
    "latitude": 35.5003121,
    "longitude": 138.8001336,
    "region_name": "Fujiyoshida",
    "country": "Japan",
    "description": "新仓山一带的重要参拜点，适合和忠灵塔、公园展望点一起放进同一天行程。",
    "tags": ["manual-video-import", "fujiyoshida", "shrine"],
    "images": [],
    "status": "active"
  }
]
