[
  {
    "name": "牦牛坪",
    "name_cn": "牦牛坪",
    "category": "attraction",
    "address": "云南省丽江市玉龙雪山景区牦牛坪",
    "latitude": 27.1234,
    "longitude": 100.2473,
    "region_name": "Lijiang",
    "country": "China",
    "description": "玉龙雪山景区里很热门的高山草甸路线，也是丽江经典行程之一。",
    "tags": ["manual-map-import", "china", "lijiang", "yulong-snow-mountain"]
  },
  {
    "name": "蓝月谷",
    "name_cn": "蓝月谷",
    "category": "attraction",
    "address": "云南省丽江市玉龙雪山景区蓝月谷",
    "latitude": 27.1386,
    "longitude": 100.2448,
    "region_name": "Lijiang",
    "country": "China",
    "description": "丽江玉龙雪山路线里最受欢迎的湖谷景观之一。",
    "tags": ["manual-map-import", "china", "lijiang", "lake"]
  },
  {
    "name": "镜潭湖",
    "name_cn": "镜潭湖",
    "category": "attraction",
    "address": "云南省丽江市蓝月谷景区镜潭湖",
    "latitude": 27.1379,
    "longitude": 100.2453,
    "region_name": "Lijiang",
    "country": "China",
    "description": "蓝月谷景区内可顺路安排的湖景打卡点。",
    "tags": ["manual-map-import", "china", "lijiang", "lake"]
  },
  {
    "name": "蓝月湖",
    "name_cn": "蓝月湖",
    "category": "attraction",
    "address": "云南省丽江市蓝月谷景区蓝月湖",
    "latitude": 27.1394,
    "longitude": 100.2441,
    "region_name": "Lijiang",
    "country": "China",
    "description": "蓝月谷区域代表性的湖景点位，适合拍照和慢走。",
    "tags": ["manual-map-import", "china", "lijiang", "lake"]
  },
  {
    "name": "听涛湖",
    "name_cn": "听涛湖",
    "category": "attraction",
    "address": "云南省丽江市蓝月谷景区听涛湖",
    "latitude": 27.1406,
    "longitude": 100.2431,
    "region_name": "Lijiang",
    "country": "China",
    "description": "蓝月谷景区内可一起安排的湖泊景观点位。",
    "tags": ["manual-map-import", "china", "lijiang", "lake"]
  },
  {
    "name": "玉液湖",
    "name_cn": "玉液湖",
    "category": "attraction",
    "address": "云南省丽江市蓝月谷景区玉液湖",
    "latitude": 27.1412,
    "longitude": 100.2424,
    "region_name": "Lijiang",
    "country": "China",
    "description": "蓝月谷路线里可一并整理的湖景打卡点。",
    "tags": ["manual-map-import", "china", "lijiang", "lake"]
  },
  {
    "name": "玉柱擎天",
    "name_cn": "玉柱擎天",
    "category": "attraction",
    "address": "云南省丽江市玉柱擎天景区",
    "latitude": 27.0225,
    "longitude": 100.2217,
    "region_name": "Lijiang",
    "country": "China",
    "description": "丽江一带带有雪山与纳西文化意象的景观点位。",
    "tags": ["manual-map-import", "china", "lijiang", "culture"]
  },
  {
    "name": "龙女湖",
    "name_cn": "龙女湖",
    "category": "attraction",
    "address": "云南省丽江市玉龙县龙女湖",
    "latitude": 27.0288,
    "longitude": 100.2242,
    "region_name": "Lijiang",
    "country": "China",
    "description": "丽江周边适合顺路拍照与散步的湖景点位。",
    "tags": ["manual-map-import", "china", "lijiang", "lake"]
  },
  {
    "name": "玉湖村",
    "name_cn": "玉湖村",
    "category": "attraction",
    "address": "云南省丽江市玉龙纳西族自治县玉湖村",
    "latitude": 27.0356,
    "longitude": 100.2183,
    "region_name": "Lijiang",
    "country": "China",
    "description": "丽江很受欢迎的村落路线之一，适合雪山背景拍照与慢游。",
    "tags": ["manual-map-import", "china", "lijiang", "village"]
  },
  {
    "name": "白沙古镇",
    "name_cn": "白沙古镇",
    "category": "attraction",
    "address": "云南省丽江市玉龙纳西族自治县白沙古镇",
    "latitude": 27.0426,
    "longitude": 100.2048,
    "region_name": "Lijiang",
    "country": "China",
    "description": "丽江古镇路线里很受欢迎、氛围较慢的一站。",
    "tags": ["manual-map-import", "china", "lijiang", "old-town"]
  },
  {
    "name": "听花谷",
    "name_cn": "听花谷",
    "category": "attraction",
    "address": "云南省丽江市玉龙县听花谷",
    "latitude": 27.0128,
    "longitude": 100.2169,
    "region_name": "Lijiang",
    "country": "China",
    "description": "丽江周边很适合拍照与看雪山背景的花园式打卡点。",
    "tags": ["manual-map-import", "china", "lijiang", "garden"]
  },
  {
    "name": "荒野之国",
    "name_cn": "荒野之国",
    "category": "attraction",
    "address": "云南省丽江市玉龙县荒野之国",
    "latitude": 27.0109,
    "longitude": 100.2148,
    "region_name": "Lijiang",
    "country": "China",
    "description": "丽江很有视觉风格的拍照打卡区域之一。",
    "tags": ["manual-map-import", "china", "lijiang", "photo-spot"]
  },
  {
    "name": "柠檬客栈",
    "name_cn": "柠檬客栈",
    "category": "accommodation",
    "address": "云南省丽江市束河古镇",
    "latitude": 26.9261,
    "longitude": 100.1986,
    "region_name": "Lijiang",
    "country": "China",
    "description": "束河古镇一带可安排住宿的客栈点位。",
    "tags": ["manual-map-import", "china", "lijiang", "hotel"]
  },
  {
    "name": "汤佳米云味土鸡米线",
    "name_cn": "汤佳米云味土鸡米线",
    "category": "food",
    "address": "云南省丽江市束河古镇附近",
    "latitude": 26.9254,
    "longitude": 100.1981,
    "region_name": "Lijiang",
    "country": "China",
    "description": "束河古镇附近可安排的一家云南风味餐饮点。",
    "tags": ["manual-map-import", "china", "lijiang", "food"]
  },
  {
    "name": "束河古镇",
    "name_cn": "束河古镇",
    "category": "attraction",
    "address": "云南省丽江市古城区束河古镇",
    "latitude": 26.9258,
    "longitude": 100.1989,
    "region_name": "Lijiang",
    "country": "China",
    "description": "丽江古镇路线里非常受欢迎的一站，适合住宿与夜逛。",
    "tags": ["manual-map-import", "china", "lijiang", "old-town"]
  },
  {
    "name": "太古里民族食府",
    "name_cn": "太古里民族食府",
    "category": "food",
    "address": "云南省丽江市古城区",
    "latitude": 26.8732,
    "longitude": 100.2368,
    "region_name": "Lijiang",
    "country": "China",
    "description": "丽江市区可安排民族风味餐饮的点位。",
    "tags": ["manual-map-import", "china", "lijiang", "food"]
  },
  {
    "name": "丽江真美观景客栈",
    "name_cn": "丽江真美观景客栈",
    "category": "accommodation",
    "address": "云南省丽江市古城区丽江古城附近",
    "latitude": 26.8712,
    "longitude": 100.2363,
    "region_name": "Lijiang",
    "country": "China",
    "description": "丽江古城周边可安排住宿与观景的客栈点位。",
    "tags": ["manual-map-import", "china", "lijiang", "hotel"]
  },
  {
    "name": "丽江古城",
    "name_cn": "丽江古城",
    "category": "attraction",
    "address": "云南省丽江市古城区丽江古城",
    "latitude": 26.8721,
    "longitude": 100.2343,
    "region_name": "Lijiang",
    "country": "China",
    "description": "云南最经典的古城目的地之一，也是丽江行程核心区域。",
    "tags": ["manual-map-import", "china", "lijiang", "old-town"]
  },
  {
    "name": "霍比特城堡过桥米线",
    "name_cn": "霍比特城堡过桥米线",
    "category": "food",
    "address": "云南省丽江市古城区",
    "latitude": 26.8708,
    "longitude": 100.2352,
    "region_name": "Lijiang",
    "country": "China",
    "description": "丽江古城周边很有视觉风格的餐饮打卡点。",
    "tags": ["manual-map-import", "china", "lijiang", "food"]
  },
  {
    "name": "龙龛码头",
    "name_cn": "龙龛码头",
    "category": "attraction",
    "address": "云南省大理市龙龛码头",
    "latitude": 25.6818,
    "longitude": 100.1502,
    "region_name": "Dali",
    "country": "China",
    "description": "大理环洱海路线里很受欢迎的看日出和骑行起点。",
    "tags": ["manual-map-import", "china", "dali", "pier"]
  },
  {
    "name": "才村",
    "name_cn": "才村",
    "category": "attraction",
    "address": "云南省大理市才村",
    "latitude": 25.7094,
    "longitude": 100.1558,
    "region_name": "Dali",
    "country": "China",
    "description": "大理洱海西岸很热门的村落和骑行路线节点。",
    "tags": ["manual-map-import", "china", "dali", "village"]
  },
  {
    "name": "龙凤村",
    "name_cn": "龙凤村",
    "category": "attraction",
    "address": "云南省大理市龙凤村",
    "latitude": 25.7369,
    "longitude": 100.1593,
    "region_name": "Dali",
    "country": "China",
    "description": "大理洱海边可顺路安排的村落景观点位。",
    "tags": ["manual-map-import", "china", "dali", "village"]
  },
  {
    "name": "磻溪村S湾",
    "name_cn": "磻溪村S湾",
    "category": "attraction",
    "address": "云南省大理市磻溪村S湾",
    "latitude": 25.7584,
    "longitude": 100.1542,
    "region_name": "Dali",
    "country": "China",
    "description": "大理很受欢迎的洱海骑行与拍照打卡点。",
    "tags": ["manual-map-import", "china", "dali", "photo-spot"]
  },
  {
    "name": "望田咖啡",
    "name_cn": "望田咖啡",
    "category": "food",
    "address": "云南省大理市磻溪村S湾附近",
    "latitude": 25.7588,
    "longitude": 100.1548,
    "region_name": "Dali",
    "country": "China",
    "description": "磻溪村S湾附近适合停留看景的咖啡店点位。",
    "tags": ["manual-map-import", "china", "dali", "coffee"]
  },
  {
    "name": "喜洲古镇",
    "name_cn": "喜洲古镇",
    "category": "attraction",
    "address": "云南省大理白族自治州大理市喜洲古镇",
    "latitude": 25.9305,
    "longitude": 100.1678,
    "region_name": "Dali",
    "country": "China",
    "description": "大理很受欢迎的白族古镇路线之一。",
    "tags": ["manual-map-import", "china", "dali", "old-town"]
  },
  {
    "name": "大理极浦水景花园别墅别漾店",
    "name_cn": "大理极浦水景花园别墅别漾店",
    "category": "accommodation",
    "address": "云南省大理市洱海边",
    "latitude": 25.6736,
    "longitude": 100.1747,
    "region_name": "Dali",
    "country": "China",
    "description": "大理洱海边可安排住宿与拍照的别墅型住宿点。",
    "tags": ["manual-map-import", "china", "dali", "hotel"]
  },
  {
    "name": "南诏十二时辰",
    "name_cn": "南诏十二时辰",
    "category": "attraction",
    "address": "云南省大理市大理古城附近",
    "latitude": 25.6928,
    "longitude": 100.1654,
    "region_name": "Dali",
    "country": "China",
    "description": "大理古城周边可安排打卡与体验的文化商业街区。",
    "tags": ["manual-map-import", "china", "dali", "culture"]
  },
  {
    "name": "大理古城",
    "name_cn": "大理古城",
    "category": "attraction",
    "address": "云南省大理市大理古城",
    "latitude": 25.6946,
    "longitude": 100.1634,
    "region_name": "Dali",
    "country": "China",
    "description": "大理行程里最核心的古城目的地之一。",
    "tags": ["manual-map-import", "china", "dali", "old-town"]
  },
  {
    "name": "双廊古镇",
    "name_cn": "双廊古镇",
    "category": "attraction",
    "address": "云南省大理市双廊古镇",
    "latitude": 25.9098,
    "longitude": 100.1859,
    "region_name": "Dali",
    "country": "China",
    "description": "洱海东岸非常热门的古镇与海景路线目的地。",
    "tags": ["manual-map-import", "china", "dali", "old-town"]
  },
  {
    "name": "杨丽萍太阳宫",
    "name_cn": "杨丽萍太阳宫",
    "category": "attraction",
    "address": "云南省大理市双廊镇玉几岛",
    "latitude": 25.9137,
    "longitude": 100.1868,
    "region_name": "Dali",
    "country": "China",
    "description": "双廊路线里很知名的海景建筑与打卡点。",
    "tags": ["manual-map-import", "china", "dali", "architecture"]
  },
  {
    "name": "大理心悦雅集海景客栈",
    "name_cn": "大理心悦雅集海景客栈",
    "category": "accommodation",
    "address": "云南省大理市双廊镇洱海边",
    "latitude": 25.9126,
    "longitude": 100.1849,
    "region_name": "Dali",
    "country": "China",
    "description": "双廊一带可安排海景住宿的客栈点位。",
    "tags": ["manual-map-import", "china", "dali", "hotel"]
  },
  {
    "name": "卓睿大酒店",
    "name_cn": "卓睿大酒店",
    "category": "accommodation",
    "address": "云南省大理市",
    "latitude": 25.5892,
    "longitude": 100.2268,
    "region_name": "Dali",
    "country": "China",
    "description": "大理市区可安排落脚的酒店点位。",
    "tags": ["manual-map-import", "china", "dali", "hotel"]
  },
  {
    "name": "凤阳邑",
    "name_cn": "凤阳邑",
    "category": "attraction",
    "address": "云南省大理市凤阳邑",
    "latitude": 25.6394,
    "longitude": 100.1386,
    "region_name": "Dali",
    "country": "China",
    "description": "大理近年很受欢迎的村落打卡路线之一。",
    "tags": ["manual-map-import", "china", "dali", "village"]
  },
  {
    "name": "凤阳茶室",
    "name_cn": "凤阳茶室",
    "category": "food",
    "address": "云南省大理市凤阳邑",
    "latitude": 25.6398,
    "longitude": 100.1382,
    "region_name": "Dali",
    "country": "China",
    "description": "凤阳邑可顺路安排的茶饮休息点。",
    "tags": ["manual-map-import", "china", "dali", "tea"]
  },
  {
    "name": "沙溪古镇",
    "name_cn": "沙溪古镇",
    "category": "attraction",
    "address": "云南省剑川县沙溪古镇",
    "latitude": 26.0862,
    "longitude": 99.9613,
    "region_name": "Dali",
    "country": "China",
    "description": "云南很有人气的慢节奏古镇路线之一。",
    "tags": ["manual-map-import", "china", "dali", "old-town"]
  },
  {
    "name": "有风小馆",
    "name_cn": "有风小馆",
    "category": "food",
    "address": "云南省剑川县沙溪古镇",
    "latitude": 26.0869,
    "longitude": 99.9619,
    "region_name": "Dali",
    "country": "China",
    "description": "沙溪古镇内可安排用餐与休息的小馆点位。",
    "tags": ["manual-map-import", "china", "dali", "food"]
  },
  {
    "name": "玉津桥",
    "name_cn": "玉津桥",
    "category": "attraction",
    "address": "云南省剑川县沙溪古镇玉津桥",
    "latitude": 26.0856,
    "longitude": 99.9608,
    "region_name": "Dali",
    "country": "China",
    "description": "沙溪古镇最具代表性的古桥打卡点之一。",
    "tags": ["manual-map-import", "china", "dali", "bridge"]
  },
  {
    "name": "先锋书院",
    "name_cn": "先锋书院",
    "category": "attraction",
    "address": "云南省剑川县沙溪古镇先锋书局/书院",
    "latitude": 26.0861,
    "longitude": 99.9624,
    "region_name": "Dali",
    "country": "China",
    "description": "沙溪古镇里很受欢迎的人文空间和拍照点。",
    "tags": ["manual-map-import", "china", "dali", "bookstore"]
  },
  {
    "name": "稻田咖啡",
    "name_cn": "稻田咖啡",
    "category": "food",
    "address": "云南省剑川县沙溪古镇周边",
    "latitude": 26.0874,
    "longitude": 99.9598,
    "region_name": "Dali",
    "country": "China",
    "description": "沙溪古镇周边适合看田景和休息的咖啡店点位。",
    "tags": ["manual-map-import", "china", "dali", "coffee"]
  },
  {
    "name": "半山咖啡",
    "name_cn": "半山咖啡",
    "category": "food",
    "address": "云南省剑川县沙溪古镇周边",
    "latitude": 26.0881,
    "longitude": 99.9587,
    "region_name": "Dali",
    "country": "China",
    "description": "沙溪古镇周边适合停留看景的咖啡点位。",
    "tags": ["manual-map-import", "china", "dali", "coffee"]
  },
  {
    "name": "巴拉格宗",
    "name_cn": "巴拉格宗",
    "category": "attraction",
    "address": "云南省迪庆州香格里拉市巴拉格宗景区",
    "latitude": 27.6436,
    "longitude": 99.2292,
    "region_name": "Shangri-La",
    "country": "China",
    "description": "香格里拉很具震撼感的峡谷和雪山景区路线之一。",
    "tags": ["manual-map-import", "china", "shangri-la", "nature"]
  },
  {
    "name": "卓玛拉康",
    "name_cn": "卓玛拉康",
    "category": "attraction",
    "address": "云南省香格里拉市巴拉格宗景区卓玛拉康",
    "latitude": 27.6418,
    "longitude": 99.2281,
    "region_name": "Shangri-La",
    "country": "China",
    "description": "巴拉格宗景区内可顺路安排的人文寺庙点位。",
    "tags": ["manual-map-import", "china", "shangri-la", "temple"]
  },
  {
    "name": "巴拉村",
    "name_cn": "巴拉村",
    "category": "attraction",
    "address": "云南省香格里拉市巴拉格宗景区巴拉村",
    "latitude": 27.6453,
    "longitude": 99.2266,
    "region_name": "Shangri-La",
    "country": "China",
    "description": "巴拉格宗景区内可一起整理的藏式村落景点。",
    "tags": ["manual-map-import", "china", "shangri-la", "village"]
  },
  {
    "name": "香巴拉佛塔",
    "name_cn": "香巴拉佛塔",
    "category": "attraction",
    "address": "云南省香格里拉市巴拉格宗景区香巴拉佛塔",
    "latitude": 27.6472,
    "longitude": 99.2247,
    "region_name": "Shangri-La",
    "country": "China",
    "description": "巴拉格宗很具代表性的高位佛塔打卡点。",
    "tags": ["manual-map-import", "china", "shangri-la", "landmark"]
  },
  {
    "name": "回音壁",
    "name_cn": "回音壁",
    "category": "attraction",
    "address": "云南省香格里拉市巴拉格宗景区回音壁",
    "latitude": 27.6484,
    "longitude": 99.2232,
    "region_name": "Shangri-La",
    "country": "China",
    "description": "巴拉格宗景区里很有特色的峡谷景观点位。",
    "tags": ["manual-map-import", "china", "shangri-la", "viewpoint"]
  },
  {
    "name": "千年菩提树",
    "name_cn": "千年菩提树",
    "category": "attraction",
    "address": "云南省香格里拉市巴拉格宗景区千年菩提树",
    "latitude": 27.6461,
    "longitude": 99.2274,
    "region_name": "Shangri-La",
    "country": "China",
    "description": "巴拉格宗景区内可顺路整理的人文自然结合点位。",
    "tags": ["manual-map-import", "china", "shangri-la", "tree"]
  },
  {
    "name": "白水台",
    "name_cn": "白水台",
    "category": "attraction",
    "address": "云南省香格里拉市白水台",
    "latitude": 27.3576,
    "longitude": 100.0941,
    "region_name": "Shangri-La",
    "country": "China",
    "description": "香格里拉很有辨识度的天然钙化台地景观。",
    "tags": ["manual-map-import", "china", "shangri-la", "nature"]
  },
  {
    "name": "下跳峡",
    "name_cn": "下跳峡",
    "category": "attraction",
    "address": "云南省香格里拉市虎跳峡下跳峡区域",
    "latitude": 27.1732,
    "longitude": 100.0926,
    "region_name": "Shangri-La",
    "country": "China",
    "description": "虎跳峡路线里较低段的峡谷观景区域。",
    "tags": ["manual-map-import", "china", "shangri-la", "canyon"]
  },
  {
    "name": "虎跳峡",
    "name_cn": "虎跳峡",
    "category": "attraction",
    "address": "云南省香格里拉市虎跳峡景区",
    "latitude": 27.1873,
    "longitude": 100.0935,
    "region_name": "Shangri-La",
    "country": "China",
    "description": "云南最经典的峡谷景观路线之一，也是香格里拉热门行程。",
    "tags": ["manual-map-import", "china", "shangri-la", "canyon"]
  },
  {
    "name": "属都湖",
    "name_cn": "属都湖",
    "category": "attraction",
    "address": "云南省香格里拉市普达措国家公园属都湖",
    "latitude": 27.8291,
    "longitude": 99.9872,
    "region_name": "Shangri-La",
    "country": "China",
    "description": "普达措国家公园里很受欢迎的湖景步道区域。",
    "tags": ["manual-map-import", "china", "shangri-la", "lake"]
  },
  {
    "name": "碧塔海",
    "name_cn": "碧塔海",
    "category": "attraction",
    "address": "云南省香格里拉市普达措国家公园碧塔海",
    "latitude": 27.8562,
    "longitude": 99.9814,
    "region_name": "Shangri-La",
    "country": "China",
    "description": "香格里拉很具代表性的高原湖泊景观。",
    "tags": ["manual-map-import", "china", "shangri-la", "lake"]
  },
  {
    "name": "爱慕唯色客栈",
    "name_cn": "爱慕唯色客栈",
    "category": "accommodation",
    "address": "云南省香格里拉市独克宗古城附近",
    "latitude": 27.8263,
    "longitude": 99.7078,
    "region_name": "Shangri-La",
    "country": "China",
    "description": "独克宗古城周边可安排住宿的客栈点位。",
    "tags": ["manual-map-import", "china", "shangri-la", "hotel"]
  },
  {
    "name": "独克宗古城",
    "name_cn": "独克宗古城",
    "category": "attraction",
    "address": "云南省香格里拉市独克宗古城",
    "latitude": 27.8261,
    "longitude": 99.7071,
    "region_name": "Shangri-La",
    "country": "China",
    "description": "香格里拉市区最核心的古城目的地之一。",
    "tags": ["manual-map-import", "china", "shangri-la", "old-town"]
  },
  {
    "name": "月光印巷",
    "name_cn": "月光印巷",
    "category": "attraction",
    "address": "云南省香格里拉市独克宗古城月光印巷",
    "latitude": 27.8255,
    "longitude": 99.7064,
    "region_name": "Shangri-La",
    "country": "China",
    "description": "独克宗古城里可安排夜逛和拍照的巷子区域。",
    "tags": ["manual-map-import", "china", "shangri-la", "street"]
  },
  {
    "name": "龟山公园",
    "name_cn": "龟山公园",
    "category": "attraction",
    "address": "云南省香格里拉市龟山公园",
    "latitude": 27.8274,
    "longitude": 99.7048,
    "region_name": "Shangri-La",
    "country": "China",
    "description": "香格里拉古城周边很受欢迎的高点观景与转经筒路线。",
    "tags": ["manual-map-import", "china", "shangri-la", "park"]
  },
  {
    "name": "月光广场",
    "name_cn": "月光广场",
    "category": "attraction",
    "address": "云南省香格里拉市独克宗古城月光广场",
    "latitude": 27.8267,
    "longitude": 99.7062,
    "region_name": "Shangri-La",
    "country": "China",
    "description": "独克宗古城里很有代表性的中心广场打卡点。",
    "tags": ["manual-map-import", "china", "shangri-la", "square"]
  }
]
